{"Name": "",
 "children": [
{
 "Name": "COSTS",
 "children": [
  {
   "Name": "Lack of funds for treatment",
 "children": [
{"Name": "Maintenance of chronic illness", "children": [
{"Name": "Refugees often go to humanitarian clinics for health maintenance","FTE": 4828,"Control": "Public","State": "Texas","Lat":29.41456,"Long":-98.452987,"Carnegie": "Associate's Colleges: High Career & Technical-High Nontraditional"},
{"Name": "Since the removal of subsidies, news reports indicate that those with chronic illness hit hardest the most","FTE": 3581,"Control": "Public","State": "Alabama","Lat":34.772116,"Long":-86.573817,"Carnegie": "Associate's Colleges: High Career & Technical-High Nontraditional"}
]},
{"Name": "Hospitalization", "children": [
{"Name": "21.2% of households reported one or more hospitalizations of a household member in Jordan for reasons other than childbirth","FTE": 4828,"Control": "Public","State": "Texas","Lat":29.41456,"Long":-98.452987,"Carnegie": "Associate's Colleges: High Career & Technical-High Nontraditional"},
{"Name": "The most common hospitalization was injury (20.7%)","FTE": 3581,"Control": "Public","State": "Alabama","Lat":34.772116,"Long":-86.573817,"Carnegie": "Associate's Colleges: High Career & Technical-High Nontraditional"},
{"Name": "The average length of stay of 5.9 days","FTE": 3581,"Control": "Public","State": "Alabama","Lat":34.772116,"Long":-86.573817,"Carnegie": "Associate's Colleges: High Career & Technical-High Nontraditional"}
]},
{"Name": "Emergency procedures", "children": [
{"Name": "Initial response from refugees is that emergency services are difficult to find and travel to","FTE": 4828,"Control": "Public","State": "Texas","Lat":29.41456,"Long":-98.452987,"Carnegie": "Associate's Colleges: High Career & Technical-High Nontraditional"},
{"Name": "Preference given to private emergency services over humanitarian services","FTE": 3581,"Control": "Public","State": "Alabama","Lat":34.772116,"Long":-86.573817,"Carnegie": "Associate's Colleges: High Career & Technical-High Nontraditional"},
{"Name": "Pharmacies play an important role in some emergency services","FTE": 3581,"Control": "Public","State": "Alabama","Lat":34.772116,"Long":-86.573817,"Carnegie": "Associate's Colleges: High Career & Technical-High Nontraditional"}
]}
]
},
 {
   "Name": "Cost vs. quality",
 "children": [
{"Name": "Self Care",
 "children": [
 {"Name": "Chronice illness maintenance","FTE": 2581,"Control": "Public","State": "Alabama","Lat":34.772116,"Long":-86.573817,"Carnegie": "Associate's Colleges: High Career & Technical-High Nontraditional"},
{"Name": "Need for more wellness education","FTE": 465,"Control": "Public","State": "South Carolina","Lat":33.313355,"Long":-81.123629,"Carnegie": "Associate's Colleges: High Career & Technical-High Traditional"},
{"Name": "Refugees recognize the need for physical exercise","FTE": 3385,"Control": "Public","State": "Alabama","Lat":33.991866,"Long":-85.991299,"Carnegie": "Associate's Colleges: High Career & Technical-Mixed Traditional/Nontraditional"},
{"Name": "Praying/Meditation","FTE": 2385,"Control": "Public","State": "Alabama","Lat":33.991866,"Long":-85.991299,"Carnegie": "Associate's Colleges: High Career & Technical-Mixed Traditional/Nontraditional"},
{"Name": "Eating well","FTE": 5385,"Control": "Public","State": "Alabama","Lat":33.991866,"Long":-85.991299,"Carnegie": "Associate's Colleges: High Career & Technical-Mixed Traditional/Nontraditional"},
{"Name": "Attend workshops & lectures","FTE": 4385,"Control": "Public","State": "Alabama","Lat":33.991866,"Long":-85.991299,"Carnegie": "Associate's Colleges: High Career & Technical-Mixed Traditional/Nontraditional"},
{"Name": "Social networks","FTE": 2385,"Control": "Public","State": "Alabama","Lat":33.991866,"Long":-85.991299,"Carnegie": "Associate's Colleges: High Career & Technical-Mixed Traditional/Nontraditional"}
  ]},
{"Name": "Avoid going to the doctor unless urgent","FTE": 3581,"Control": "Public","State": "Alabama","Lat":34.772116,"Long":-86.573817,"Carnegie": "Associate's Colleges: High Career & Technical-High Nontraditional"},
{"Name": "Pharmacies are used as direct providers","FTE": 4650,"Control": "Public","State": "South Carolina","Lat":33.313355,"Long":-81.123629,"Carnegie": "Associate's Colleges: High Career & Technical-High Traditional"},
{"Name": "Transportation is a major concern of refugees","FTE": 3385,"Control": "Public","State": "Alabama","Lat":33.991866,"Long":-85.991299,"Carnegie": "Associate's Colleges: High Career & Technical-Mixed Traditional/Nontraditional"},
{"Name": "Medications were discussed as too expensive in the focus groups", "FTE": 2052,"Control": "Public","State": "Alabama","Lat":30.693972,"Long":-88.056982,"Carnegie": "Associate's Colleges: High Career & Technical-Mixed Traditional/Nontraditional"},
{"Name": "Emergency care","FTE": 1026,"Control": "Public","State": "Alabama","Lat":33.120531,"Long":-87.56148,"Carnegie": "Associate's Colleges: High Career & Technical-Mixed Traditional/Nontraditional"}
]
},
{
   "Name": "Chronic conditions",
 "children": [
{"Name": "A healthy lifestyle can be expensive for refugees","FTE": 5828,"Control": "Public","State": "Texas","Lat":29.41456,"Long":-98.452987,"Carnegie": "Associate's Colleges: High Career & Technical-High Nontraditional"},
{"Name": "Dialysis", "children": [
{"Name": "Since removal of subsidies, dialysis programs have uncertain futures","FTE": 4828,"Control": "Public","State": "Texas","Lat":29.41456,"Long":-98.452987,"Carnegie": "Associate's Colleges: High Career & Technical-High Nontraditional"},
{"Name": "Dialysis patients do not feel like a priorty","FTE": 3581,"Control": "Public","State": "Alabama","Lat":34.772116,"Long":-86.573817,"Carnegie": "Associate's Colleges: High Career & Technical-High Nontraditional"},
{"Name": "Cost of a dialysis treatment in Jordan is roughly $65 per session ","FTE": 3581,"Control": "Public","State": "Alabama","Lat":34.772116,"Long":-86.573817,"Carnegie": "Associate's Colleges: High Career & Technical-High Nontraditional"}
]},
{"Name": "Chronic illness awareness", "children": [
{"Name": "Healthcare providers request increase in education and awareness","FTE": 4828,"Control": "Public","State": "Texas","Lat":29.41456,"Long":-98.452987,"Carnegie": "Associate's Colleges: High Career & Technical-High Nontraditional"},
{"Name": "Education on nutrition and healthy diets has become a need","FTE": 3581,"Control": "Public","State": "Alabama","Lat":34.772116,"Long":-86.573817,"Carnegie": "Associate's Colleges: High Career & Technical-High Nontraditional"},
{"Name": "Reducing stress and mental health is also related to awareness of chronic illnesses","FTE": 3581,"Control": "Public","State": "Alabama","Lat":34.772116,"Long":-86.573817,"Carnegie": "Associate's Colleges: High Career & Technical-High Nontraditional"}
]},
{"Name": "Role of humanitarian clinics", "children": [
{"Name": "Refugees often mention that they use humanitarian clinics for chronic health maintenance","FTE": 4828,"Control": "Public","State": "Texas","Lat":29.41456,"Long":-98.452987,"Carnegie": "Associate's Colleges: High Career & Technical-High Nontraditional"},
{"Name": "Lack of funding places these clinics in jeopardy","FTE": 3581,"Control": "Public","State": "Alabama","Lat":34.772116,"Long":-86.573817,"Carnegie": "Associate's Colleges: High Career & Technical-High Nontraditional"}
]},
{"Name": "Medication costs","FTE": 1052,"Control": "Public","State": "Alabama","Lat":30.693972,"Long":-88.056982,"Carnegie": "Associate's Colleges: High Career & Technical-Mixed Traditional/Nontraditional"},
{"Name": "Self-management education","FTE": 4026,"Control": "Public","State": "Alabama","Lat":33.120531,"Long":-87.56148,"Carnegie": "Associate's Colleges: High Career & Technical-Mixed Traditional/Nontraditional"},
{"Name": "Mental health","FTE": 2026,"Control": "Public","State": "Alabama","Lat":33.120531,"Long":-87.56148,"Carnegie": "Associate's Colleges: High Career & Technical-Mixed Traditional/Nontraditional"},
{"Name": "Blood transfusions - thalassemia","FTE": 3026,"Control": "Public","State": "Alabama","Lat":33.120531,"Long":-87.56148,"Carnegie": "Associate's Colleges: High Career & Technical-Mixed Traditional/Nontraditional"},
{"Name": "Increased illness since displacement", "children": [
{"Name": "Reports of increased cases of stress and stress related illnesss","FTE": 4828,"Control": "Public","State": "Texas","Lat":29.41456,"Long":-98.452987,"Carnegie": "Associate's Colleges: High Career & Technical-High Nontraditional"},
{"Name": "Cases of chronic illness have increased","FTE": 3581,"Control": "Public","State": "Alabama","Lat":34.772116,"Long":-86.573817,"Carnegie": "Associate's Colleges: High Career & Technical-High Nontraditional"},
{"Name": "Need for education on stress management and mental health","FTE": 3581,"Control": "Public","State": "Alabama","Lat":34.772116,"Long":-86.573817,"Carnegie": "Associate's Colleges: High Career & Technical-High Nontraditional"}
]  }
]
},
{
   "Name": "Pharmacies",
 "children": [
{"Name": "'Known' pharmacies","FTE": 4828,"Control": "Public","State": "Texas","Lat":29.41456,"Long":-98.452987,"Carnegie": "Associate's Colleges: High Career & Technical-High Nontraditional"},
{"Name": "Expanding role","FTE": 965,"Control": "Public","State": "South Carolina","Lat":33.313355,"Long":-81.123629,"Carnegie": "Associate's Colleges: High Career & Technical-High Traditional"},
{"Name": "Direct patient care","FTE": 2052,"Control": "Public","State": "Alabama","Lat":30.693972,"Long":-88.056982,"Carnegie": "Associate's Colleges: High Career & Technical-Mixed Traditional/Nontraditional"},
{"Name": "Perscriptions",
 "children": [
{"Name": "High costs","FTE": 4828,"Control": "Public","State": "Texas","Lat":29.41456,"Long":-98.452987,"Carnegie": "Associate's Colleges: High Career & Technical-High Nontraditional"},
{"Name": "Lack of supply","FTE": 1581,"Control": "Public","State": "Alabama","Lat":34.772116,"Long":-86.573817,"Carnegie": "Associate's Colleges: High Career & Technical-High Nontraditional"},
{"Name": "Provided by pharmacists","FTE": 3965,"Control": "Public","State": "South Carolina","Lat":33.313355,"Long":-81.123629,"Carnegie": "Associate's Colleges: High Career & Technical-High Traditional"}
]
},
{"Name": "Use of pain killers","FTE": 1026,"Control": "Public","State": "Alabama","Lat":33.120531,"Long":-87.56148,"Carnegie": "Associate's Colleges: High Career & Technical-Mixed Traditional/Nontraditional"}
]
},
{
   "Name": "Healthcare vs. other expenses",
 "children": [
{"Name": "Rent","FTE": 4828,"Control": "Public","State": "Texas","Lat":29.41456,"Long":-98.452987,"Carnegie": "Associate's Colleges: High Career & Technical-High Nontraditional"},
{"Name": "Poor housing conditions","FTE": 581,"Control": "Public","State": "Alabama","Lat":34.772116,"Long":-86.573817,"Carnegie": "Associate's Colleges: High Career & Technical-High Nontraditional"},
{"Name": "Poor quality of food","FTE": 465,"Control": "Public","State": "South Carolina","Lat":33.313355,"Long":-81.123629,"Carnegie": "Associate's Colleges: High Career & Technical-High Traditional"},
{"Name": "Food vouchers","FTE": 3385,"Control": "Public","State": "Alabama","Lat":33.991866,"Long":-85.991299,"Carnegie": "Associate's Colleges: High Career & Technical-Mixed Traditional/Nontraditional"},
{"Name": "Unemployment","FTE": 2052,"Control": "Public","State": "Alabama","Lat":30.693972,"Long":-88.056982,"Carnegie": "Associate's Colleges: High Career & Technical-Mixed Traditional/Nontraditional"},
{"Name": "Cash tansfer criteria","FTE": 4026,"Control": "Public","State": "Alabama","Lat":33.120531,"Long":-87.56148,"Carnegie": "Associate's Colleges: High Career & Technical-Mixed Traditional/Nontraditional"},
{"Name": "Poor water quality","FTE": 1053,"Control": "Public","State": "Alabama","Lat":32.350109,"Long":-86.343057,"Carnegie": "Associate's Colleges: High Career & Technical-Mixed Traditional/Nontraditional"}
]
}
]
},
{
 "Name": "TRUST",
 "children": [
  {
   "Name": "Perception of exam as not thorough",
 "children": [
{"Name": "Insufficient physical examinations ","FTE": 4828,"Control": "Public","State": "Texas","Lat":29.41456,"Long":-98.452987,"Carnegie": "Associate's Colleges: High Career & Technical-High Nontraditional"},
{"Name": "Do not spend enough time","FTE": 5081,"Control": "Public","State": "Alabama","Lat":34.772116,"Long":-86.573817,"Carnegie": "Associate's Colleges: High Career & Technical-High Nontraditional"},
{"Name": "'Inhumane' treatment from providers","FTE": 465,"Control": "Public","State": "South Carolina","Lat":33.313355,"Long":-81.123629,"Carnegie": "Associate's Colleges: High Career & Technical-High Traditional"},
{"Name": "Perceptions of discrimination","FTE": 3385,"Control": "Public","State": "Alabama","Lat":33.991866,"Long":-85.991299,"Carnegie": "Associate's Colleges: High Career & Technical-Mixed Traditional/Nontraditional"},
{"Name": "Lack of female antenatal providers","FTE": 2052,"Control": "Public","State": "Alabama","Lat":30.693972,"Long":-88.056982,"Carnegie": "Associate's Colleges: High Career & Technical-Mixed Traditional/Nontraditional"},
{"Name": "Increase numbers of female physicians","FTE": 3026,"Control": "Public","State": "Alabama","Lat":33.120531,"Long":-87.56148,"Carnegie": "Associate's Colleges: High Career & Technical-Mixed Traditional/Nontraditional"}
]
},
 {
   "Name": "Lack of transparency with funding",
 "children": [
{"Name": "Questions about funding","FTE": 4828,"Control": "Public","State": "Texas","Lat":29.41456,"Long":-98.452987,"Carnegie": "Associate's Colleges: High Career & Technical-High Nontraditional"},
{"Name": "Perceptions of favoritism","FTE": 1581,"Control": "Public","State": "Alabama","Lat":34.772116,"Long":-86.573817,"Carnegie": "Associate's Colleges: High Career & Technical-High Nontraditional"},
{"Name": "Perceptions of mishandling of funds","FTE": 2465,"Control": "Public","State": "South Carolina","Lat":33.313355,"Long":-81.123629,"Carnegie": "Associate's Colleges: High Career & Technical-High Traditional"}
]
},
{
   "Name": "Inconsistent experiences",
 "children": [
{"Name": "Legal status concerns","FTE": 4828,"Control": "Public","State": "Texas","Lat":29.41456,"Long":-98.452987,"Carnegie": "Associate's Colleges: High Career & Technical-High Nontraditional"},
{"Name": "24/7 emergency care located far away","FTE": 581,"Control": "Public","State": "Alabama","Lat":34.772116,"Long":-86.573817,"Carnegie": "Associate's Colleges: High Career & Technical-High Nontraditional"},
{"Name": "Discrimination in the health care setting","FTE": 465,"Control": "Public","State": "South Carolina","Lat":33.313355,"Long":-81.123629,"Carnegie": "Associate's Colleges: High Career & Technical-High Traditional"},
{"Name": "Increase numbers of female physicians","FTE": 3385,"Control": "Public","State": "Alabama","Lat":33.991866,"Long":-85.991299,"Carnegie": "Associate's Colleges: High Career & Technical-Mixed Traditional/Nontraditional"}
]
}
]
},
{
 "Name": "COORDINATION",
 "children": [
  {
   "Name": "Closed clinics",
 "children": [
{"Name": "Closed due to lack of funding","FTE": 4828,"Control": "Public","State": "Texas","Lat":29.41456,"Long":-98.452987,"Carnegie": "Associate's Colleges: High Career & Technical-High Nontraditional"},
{"Name": "Transportation cost increase","FTE": 3581,"Control": "Public","State": "Alabama","Lat":34.772116,"Long":-86.573817,"Carnegie": "Associate's Colleges: High Career & Technical-High Nontraditional"},
{"Name": "Inconsistent schedules","FTE": 4065,"Control": "Public","State": "South Carolina","Lat":33.313355,"Long":-81.123629,"Carnegie": "Associate's Colleges: High Career & Technical-High Traditional"}
]
},
 {
   "Name": "Dependent on word of mouth",
 "children": [
{"Name": "Lack of trust in websites","FTE": 4828,"Control": "Public","State": "Texas","Lat":29.41456,"Long":-98.452987,"Carnegie": "Associate's Colleges: High Career & Technical-High Nontraditional"},
{"Name": "Inconsistent schedules","FTE": 5081,"Control": "Public","State": "Alabama","Lat":34.772116,"Long":-86.573817,"Carnegie": "Associate's Colleges: High Career & Technical-High Nontraditional"},
{"Name": "Social media","FTE": 4065,"Control": "Public","State": "South Carolina","Lat":33.313355,"Long":-81.123629,"Carnegie": "Associate's Colleges: High Career & Technical-High Traditional"},
{"Name": "Mobile phone use","FTE": 3385,"Control": "Public","State": "Alabama","Lat":33.991866,"Long":-85.991299,"Carnegie": "Associate's Colleges: High Career & Technical-Mixed Traditional/Nontraditional"},
{"Name": "Communication efforts","FTE": 2052,"Control": "Public","State": "Alabama","Lat":30.693972,"Long":-88.056982,"Carnegie": "Associate's Colleges: High Career & Technical-Mixed Traditional/Nontraditional"}
]
},
{
   "Name": "Jumping between clinics",
 "children": [
{"Name": "Transportation cost","FTE": 4828,"Control": "Public","State": "Texas","Lat":29.41456,"Long":-98.452987,"Carnegie": "Associate's Colleges: High Career & Technical-High Nontraditional"},
{"Name": "Chronic conditions","FTE": 581,"Control": "Public","State": "Alabama","Lat":34.772116,"Long":-86.573817,"Carnegie": "Associate's Colleges: High Career & Technical-High Nontraditional"},
{"Name": "Unclear clinic schedules","FTE": 3465,"Control": "Public","State": "South Carolina","Lat":33.313355,"Long":-81.123629,"Carnegie": "Associate's Colleges: High Career & Technical-High Traditional"},
{"Name": "Physician availability","FTE": 1385,"Control": "Public","State": "Alabama","Lat":33.991866,"Long":-85.991299,"Carnegie": "Associate's Colleges: High Career & Technical-Mixed Traditional/Nontraditional"}
]
},
{
   "Name": "Records",
 "children": [
{"Name": "No electronic records","FTE": 4828,"Control": "Public","State": "Texas","Lat":29.41456,"Long":-98.452987,"Carnegie": "Associate's Colleges: High Career & Technical-High Nontraditional"},
{"Name": "Lack of Birth Certificates","FTE": 581,"Control": "Public","State": "Alabama","Lat":34.772116,"Long":-86.573817,"Carnegie": "Associate's Colleges: High Career & Technical-High Nontraditional"},
{"Name": "Changing UNHCR Policies","FTE": 465,"Control": "Public","State": "South Carolina","Lat":33.313355,"Long":-81.123629,"Carnegie": "Associate's Colleges: High Career & Technical-High Traditional"},
{"Name": "Legal status","FTE": 3385,"Control": "Public","State": "Alabama","Lat":33.991866,"Long":-85.991299,"Carnegie": "Associate's Colleges: High Career & Technical-Mixed Traditional/Nontraditional"}
]
}
]
}
]
}