{"Name": "George C Wallace State Community College-Selma","FTE": 1146","Control": "Public","State": "Alabama","Lat":32.445917,"Long":-87.013294,"Carnegie": "Associate's Colleges: High Career & Technical-High Nontraditional"},
{"Name": "Arkansas State University Mid-South","FTE": 968","Control": "Public","State": "Arkansas","Lat":35.145736,"Long":-90.22285,"Carnegie": "Associate's Colleges: High Career & Technical-High Nontraditional"},
{"Name": "City Colleges of Chicago-Kennedy-King College","FTE": 2234","Control": "Public","State": "Illinois","Lat":41.780253,"Long":-87.643425,"Carnegie": "Associate's Colleges: High Career & Technical-High Nontraditional"},
{"Name": "City Colleges of Chicago-Malcolm X College","FTE": 3796","Control": "Public","State": "Illinois","Lat":41.878092,"Long":-87.675321,"Carnegie": "Associate's Colleges: High Career & Technical-High Nontraditional"},
{"Name": "City Colleges of Chicago-Olive-Harvey College","FTE": 1740","Control": "Public","State": "Illinois","Lat":41.709997,"Long":-87.589249,"Carnegie": "Associate's Colleges: High Career & Technical-High Nontraditional"},
{"Name": "Prairie State College","FTE": 2535","Control": "Public","State": "Illinois","Lat":41.525316,"Long":-87.638943,"Carnegie": "Associate's Colleges: High Career & Technical-High Nontraditional"},
{"Name": "Northwest Louisiana Technical College","FTE": 1224","Control": "Public","State": "Louisiana","Lat":32.586037,"Long":-93.26302,"Carnegie": "Associate's Colleges: High Career & Technical-High Nontraditional"},
{"Name": "Oconee Fall Line Technical College","FTE": 712","Control": "Public","State": "Georgia","Lat":32.996687,"Long":-82.839621,"Carnegie": "Associate's Colleges: High Career & Technical-High Nontraditional"},
{"Name": "South Louisiana Community College","FTE": 4377","Control": "Public","State": "Louisiana","Lat":30.21888,"Long":-92.051331,"Carnegie": "Associate's Colleges: High Career & Technical-High Nontraditional"},
{"Name": "Augusta Technical College","FTE": 2610","Control": "Public","State": "Georgia","Lat":33.418992,"Long":-82.048439,"Carnegie": "Associate's Colleges: High Career & Technical-High Traditional"},
{"Name": "Bainbridge State College","FTE": 1471","Control": "Public","State": "Georgia","Lat":30.899474,"Long":-84.535049,"Carnegie": "Associate's Colleges: High Career & Technical-High Traditional"},
{"Name": "Northeastern Technical College","FTE": 610","Control": "Public","State": "South Carolina","Lat":34.698248,"Long":-79.939245,"Carnegie": "Associate's Colleges: High Career & Technical-High Traditional"},
{"Name": "Ogeechee Technical College","FTE": 1125","Control": "Public","State": "Georgia","Lat":32.395767,"Long":-81.818517,"Carnegie": "Associate's Colleges: High Career & Technical-High Traditional"},
{"Name": "Albany Technical College","FTE": 2022","Control": "Public","State": "Georgia","Lat":31.55434,"Long":-84.174284,"Carnegie": "Associate's Colleges: High Career & Technical-Mixed Traditional/Nontraditional"},
{"Name": "Columbus Technical College","FTE": 1678","Control": "Public","State": "Georgia","Lat":32.505697,"Long":-84.979348,"Carnegie": "Associate's Colleges: High Career & Technical-Mixed Traditional/Nontraditional"},
{"Name": "Savannah Technical College","FTE": 2247","Control": "Public","State": "Georgia","Lat":32.023211,"Long":-81.114753,"Carnegie": "Associate's Colleges: High Career & Technical-Mixed Traditional/Nontraditional"},
{"Name": "South Georgia Technical College","FTE": 1223","Control": "Public","State": "Georgia","Lat":32.116663,"Long":-84.188321,"Carnegie": "Associate's Colleges: High Career & Technical-Mixed Traditional/Nontraditional"},
{"Name": "Edgecombe Community College","FTE": 1282","Control": "Public","State": "North Carolina","Lat":35.879867,"Long":-77.571786,"Carnegie": "Associate's Colleges: High Career & Technical-Mixed Traditional/Nontraditional"},
{"Name": "Halifax Community College","FTE": 753","Control": "Public","State": "North Carolina","Lat":36.427712,"Long":-77.617681,"Carnegie": "Associate's Colleges: High Career & Technical-Mixed Traditional/Nontraditional"},
{"Name": "Central Carolina Technical College","FTE": 2041","Control": "Public","State": "South Carolina","Lat":33.9328,"Long":-80.367398,"Carnegie": "Associate's Colleges: High Career & Technical-Mixed Traditional/Nontraditional"},
{"Name": "Georgia Piedmont Technical College","FTE": 1973","Control": "Public","State": "Georgia","Lat":33.789898,"Long":-84.234504,"Carnegie": "Associate's Colleges: High Career & Technical-Mixed Traditional/Nontraditional"},
{"Name": "Central Georgia Technical College","FTE": 4187","Control": "Public","State": "Georgia","Lat":32.54503,"Long":-83.667551,"Carnegie": "Associate's Colleges: High Career & Technical-Mixed Traditional/Nontraditional"},

{"Name": "Los Angeles Southwest College","FTE": 3257","Control": "Public","State": "California","Lat":33.929586,"Long":-118.304674,"Carnegie": "Associate's Colleges: High Transfer-High Nontraditional"},
{"Name": "Georgia Military College","FTE": 6059","Control": "Public","State": "Georgia","Lat":33.07865,"Long":-83.224401,"Carnegie": "Associate's Colleges: High Transfer-High Nontraditional"},
{"Name": "Chattahoochee Valley Community College","FTE": 1087","Control": "Public","State": "Alabama","Lat":32.42391,"Long":-85.031485,"Carnegie": "Associate's Colleges: High Transfer-High Traditional"},
{"Name": "Prince George's Community College","FTE": 6496","Control": "Public","State": "Maryland","Lat":38.888495,"Long":-76.824157,"Carnegie": "Associate's Colleges: High Transfer-High Traditional"},
{"Name": "Roxbury Community College","FTE": 1104","Control": "Public","State": "Massachusetts","Lat":42.329249,"Long":-71.09549,"Carnegie": "Associate's Colleges: High Transfer-High Traditional"},
{"Name": "Essex County College","FTE": 6453","Control": "Public","State": "New Jersey","Lat":40.738444,"Long":-74.178234,"Carnegie": "Associate's Colleges: High Transfer-High Traditional"},
{"Name": "Community College of Philadelphia","FTE": 9330","Control": "Public","State": "Pennsylvania","Lat":39.962375,"Long":-75.166065,"Carnegie": "Associate's Colleges: High Transfer-High Traditional"},
{"Name": "University of South Carolina-Salkehatchie","FTE": 764","Control": "Public","State": "South Carolina","Lat":33.014312,"Long":-81.301838,"Carnegie": "Associate's Colleges: High Transfer-High Traditional"},
{"Name": "Bossier Parish Community College","FTE": 4643","Control": "Public","State": "Louisiana","Lat":32.539551,"Long":-93.646881,"Carnegie": "Associate's Colleges: High Transfer-Mixed Traditional/Nontraditional"},
{"Name": "Baltimore City Community College","FTE": 2363","Control": "Public","State": "Maryland","Lat":39.319978,"Long":-76.662878,"Carnegie": "Associate's Colleges: High Transfer-Mixed Traditional/Nontraditional"},
{"Name": "Mississippi Delta Community College","FTE": 1976","Control": "Public","State": "Mississippi","Lat":33.444906,"Long":-90.502053,"Carnegie": "Associate's Colleges: High Transfer-Mixed Traditional/Nontraditional"},
{"Name": "Saint Louis Community College","FTE": 11185","Control": "Public","State": "Missouri","Lat":38.62273,"Long":-90.190701,"Carnegie": "Associate's Colleges: High Transfer-Mixed Traditional/Nontraditional"},
{"Name": "Durham Technical Community College","FTE": 2680","Control": "Public","State": "North Carolina","Lat":35.975202,"Long":-78.880735,"Carnegie": "Associate's Colleges: High Transfer-Mixed Traditional/Nontraditional"},
{"Name": "Fayetteville Technical Community College","FTE": 6623","Control": "Public","State": "North Carolina","Lat":35.068851,"Long":-78.92658,"Carnegie": "Associate's Colleges: High Transfer-Mixed Traditional/Nontraditional"},
{"Name": "Georgia State University-Perimeter College","FTE": 10766","Control": "Public","State": "Georgia","Lat":33.753426,"Long":-84.385712,"Carnegie": "Associate's Colleges: High Transfer-Mixed Traditional/Nontraditional"},
{"Name": "Baton Rouge Community College","FTE": 4928","Control": "Public","State": "Louisiana","Lat":30.448276,"Long":-91.137935,"Carnegie": "Associate's Colleges: High Transfer-Mixed Traditional/Nontraditional"},


{"Name": "South Suburban College","FTE": 2153","Control": "Public","State": "Illinois","Lat":41.606427,"Long":-87.619123,"Carnegie": "Associate's Colleges: Mixed Transfer/Career & Technical-High Nontraditional"},
{"Name": "East Mississippi Community College","FTE": 2980","Control": "Public","State": "Mississippi","Lat":32.830246,"Long":-88.483516,"Carnegie": "Associate's Colleges: Mixed Transfer/Career & Technical-High Nontraditional"},
{"Name": "Cedar Valley College","FTE": 3266","Control": "Public","State": "Texas","Lat":32.625686,"Long":-96.763421,"Carnegie": "Associate's Colleges: Mixed Transfer/Career & Technical-High Nontraditional"},
{"Name": "Alabama Southern Community College","FTE": 983","Control": "Public","State": "Alabama","Lat":31.488925,"Long":-87.326352,"Carnegie": "Associate's Colleges: Mixed Transfer/Career & Technical-High Traditional"},
{"Name": "Pulaski Technical College","FTE": 4072","Control": "Public","State": "Arkansas","Lat":34.78243,"Long":-92.299729,"Carnegie": "Associate's Colleges: Mixed Transfer/Career & Technical-High Traditional"},
{"Name": "Delgado Community College","FTE": 8694","Control": "Public","State": "Louisiana","Lat":29.985149,"Long":-90.103962,"Carnegie": "Associate's Colleges: Mixed Transfer/Career & Technical-High Traditional"},
{"Name": "Copiah-Lincoln Community College","FTE": 2475","Control": "Public","State": "Mississippi","Lat":31.69272,"Long":-90.400234,"Carnegie": "Associate's Colleges: Mixed Transfer/Career & Technical-High Traditional"},
{"Name": "Hinds Community College","FTE": 8577","Control": "Public","State": "Mississippi","Lat":32.256109,"Long":-90.416118,"Carnegie": "Associate's Colleges: Mixed Transfer/Career & Technical-High Traditional"},
{"Name": "Meridian Community College","FTE": 2851","Control": "Public","State": "Mississippi","Lat":32.368097,"Long":-88.733604,"Carnegie": "Associate's Colleges: Mixed Transfer/Career & Technical-High Traditional"},
{"Name": "Southwest Mississippi Community College","FTE": 1685","Control": "Public","State": "Mississippi","Lat":31.29622,"Long":-90.442844,"Carnegie": "Associate's Colleges: Mixed Transfer/Career & Technical-High Traditional"},
{"Name": "Florence-Darlington Technical College","FTE": 3592","Control": "Public","State": "South Carolina","Lat":34.243882,"Long":-79.81469,"Carnegie": "Associate's Colleges: Mixed Transfer/Career & Technical-High Traditional"},
{"Name": "Wayne County Community College District","FTE": 7329","Control": "Public","State": "Michigan","Lat":42.326515,"Long":-83.055527,"Carnegie": "Associate's Colleges: Mixed Transfer/Career & Technical-Mixed Traditional/Nontraditional"},
{"Name": "Holmes Community College","FTE": 4457","Control": "Public","State": "Mississippi","Lat":32.969985,"Long":-89.915803,"Carnegie": "Associate's Colleges: Mixed Transfer/Career & Technical-Mixed Traditional/Nontraditional"},
{"Name": "Southwest Tennessee Community College","FTE": 5651","Control": "Public","State": "Tennessee","Lat":35.137577,"Long":-90.036543,"Carnegie": "Associate's Colleges: Mixed Transfer/Career & Technical-Mixed Traditional/Nontraditional"},


{"Name": "East-West University","FTE": 510","Control": "Private not-for-profit","State": "Illinois","Lat":41.871309,"Long":-87.624793,"Carnegie": "Baccalaureate Colleges: Arts & Sciences Focus"},
{"Name": "Martin University","FTE": 268","Control": "Private not-for-profit","State": "Indiana","Lat":39.79829,"Long":-86.102731,"Carnegie": "Baccalaureate Colleges: Arts & Sciences Focus"},
{"Name": "Bloomfield College","FTE": 1873","Control": "Private not-for-profit","State": "New Jersey","Lat":40.794218,"Long":-74.19593,"Carnegie": "Baccalaureate Colleges: Arts & Sciences Focus"},


{"Name": "Warner University","FTE": 1020","Control": "Private not-for-profit","State": "Florida","Lat":27.825751,"Long":-81.599972,"Carnegie": "Baccalaureate Colleges: Diverse Fields"},
{"Name": "CUNY Medgar Evers College","FTE": 5591","Control": "Public","State": "New York","Lat":40.666256,"Long":-73.957076,"Carnegie": "Baccalaureate Colleges: Diverse Fields"},
{"Name": "CUNY York College","FTE": 6452","Control": "Public","State": "New York","Lat":40.702661,"Long":-73.794586,"Carnegie": "Baccalaureate Colleges: Diverse Fields"},
{"Name": "Chowan University","FTE": 1494","Control": "Private not-for-profit","State": "North Carolina","Lat":36.436258,"Long":-77.099141,"Carnegie": "Baccalaureate Colleges: Diverse Fields"},
{"Name": "North Carolina Wesleyan College","FTE": 1903","Control": "Private not-for-profit","State": "North Carolina","Lat":36.017443,"Long":-77.774231,"Carnegie": "Baccalaureate Colleges: Diverse Fields"},
{"Name": "Peirce College","FTE": 809","Control": "Private not-for-profit","State": "Pennsylvania","Lat":39.945483,"Long":-75.166332,"Carnegie": "Baccalaureate Colleges: Diverse Fields"},
{"Name": "Limestone College","FTE": 2518","Control": "Private not-for-profit","State": "South Carolina","Lat":35.052919,"Long":-81.648033,"Carnegie": "Baccalaureate Colleges: Diverse Fields"},
{"Name": "Remington College-Heathrow Campus","FTE": 241","Control": "Private not-for-profit","State": "Florida","Lat":28.78484,"Long":-81.360111,"Carnegie": "Baccalaureate Colleges: Diverse Fields"},


{"Name": "Darton State College","FTE": 2667","Control": "Public","State": "Georgia","Lat":31.583594,"Long":-84.212087,"Carnegie": "Baccalaureate/Associate's Colleges: Associate's Dominant"},
{"Name": "Atlanta Metropolitan State College","FTE": 1806","Control": "Public","State": "Georgia","Lat":33.70893,"Long":-84.404659,"Carnegie": "Baccalaureate/Associate's Colleges: Associate's Dominant"},
{"Name": "East Georgia State College","FTE": 2622","Control": "Public","State": "Georgia","Lat":32.59577,"Long":-82.308486,"Carnegie": "Baccalaureate/Associate's Colleges: Associate's Dominant"},
{"Name": "Remington College-Memphis Campus","FTE": 600","Control": "Private not-for-profit","State": "Tennessee","Lat":35.071403,"Long":-89.989881,"Carnegie": "Baccalaureate/Associate's Colleges: Associate's Dominant"},
{"Name": "Jones College-Jacksonville","FTE": 91","Control": "Private not-for-profit","State": "Florida","Lat":30.328002,"Long":-81.610068,"Carnegie": "Baccalaureate/Associate's Colleges: Mixed Baccalaureate/Associate's"},
{"Name": "Everest University-North Orlando","FTE": 7","Control": "Private not-for-profit","State": "Florida","Lat":28.610884,"Long":-81.387438,"Carnegie": "Baccalaureate/Associate's Colleges: Mixed Baccalaureate/Associate's"},
{"Name": "City College-Fort Lauderdale","FTE": 337","Control": "Private not-for-profit","State": "Florida","Lat":26.18748,"Long":-80.17007,"Carnegie": "Baccalaureate/Associate's Colleges: Mixed Baccalaureate/Associate's"},
{"Name": "Everest University-Brandon","FTE": 87","Control": "Private not-for-profit","State": "Florida","Lat":27.980447,"Long":-82.35034,"Carnegie": "Baccalaureate/Associate's Colleges: Mixed Baccalaureate/Associate's"},
{"Name": "Everest University-South Orlando","FTE": 1530","Control": "Private not-for-profit","State": "Florida","Lat":28.434702,"Long":-81.426942,"Carnegie": "Baccalaureate/Associate's Colleges: Mixed Baccalaureate/Associate's"},
{"Name": "City College-Gainesville","FTE": 325","Control": "Private not-for-profit","State": "Florida","Lat":29.65601,"Long":-82.4168,"Carnegie": "Baccalaureate/Associate's Colleges: Mixed Baccalaureate/Associate's"},
{"Name": "Everest University-Jacksonville","FTE": 18","Control": "Private not-for-profit","State": "Florida","Lat":30.219885,"Long":-81.586366,"Carnegie": "Baccalaureate/Associate's Colleges: Mixed Baccalaureate/Associate's"},
{"Name": "Everest University-Orange Park","FTE": 291","Control": "Private not-for-profit","State": "Florida","Lat":30.188758,"Long":-81.706674,"Carnegie": "Baccalaureate/Associate's Colleges: Mixed Baccalaureate/Associate's"},


{"Name": "Georgia State University","FTE": 27524","Control": "Public","State": "Georgia","Lat":33.7527,"Long":-84.38667,"Carnegie": "Doctoral Universities: Highest Research Activity"},
{"Name": "CUNY Graduate School and University Center","FTE": 5272","Control": "Public","State": "New York","Lat":40.748503,"Long":-73.983575,"Carnegie": "Doctoral Universities: Highest Research Activity"},


{"Name": "University of West Alabama","FTE": 3731","Control": "Public","State": "Alabama","Lat":32.588132,"Long":-88.186329,"Carnegie": "Master's Colleges & Universities: Larger Programs"},
{"Name": "Trinity Washington University","FTE": 1523","Control": "Private not-for-profit","State": "District of Columbia","Lat":38.927398,"Long":-77.004261,"Carnegie": "Master's Colleges & Universities: Larger Programs"},
{"Name": "Marygrove College","FTE": 604","Control": "Private not-for-profit","State": "Michigan","Lat":42.414415,"Long":-83.154109,"Carnegie": "Master's Colleges & Universities: Larger Programs"},
{"Name": "Belhaven University","FTE": 2673","Control": "Private not-for-profit","State": "Mississippi","Lat":32.318415,"Long":-90.169228,"Carnegie": "Master's Colleges & Universities: Larger Programs"},
{"Name": "Metropolitan College of New York","FTE": 979","Control": "Private not-for-profit","State": "New York","Lat":40.708706,"Long":-74.014702,"Carnegie": "Master's Colleges & Universities: Larger Programs"},
{"Name": "Bethel University","FTE": 5050","Control": "Private not-for-profit","State": "Tennessee","Lat":36.139271,"Long":-88.516162,"Carnegie": "Master's Colleges & Universities: Larger Programs"},


{"Name": "Clayton  State University","FTE": 5085","Control": "Public","State": "Georgia","Lat":33.594079,"Long":-84.328174,"Carnegie": "Master's Colleges & Universities: Medium Programs"},
{"Name": "Chicago State University","FTE": 2760","Control": "Public","State": "Illinois","Lat":41.718813,"Long":-87.610344,"Carnegie": "Master's Colleges & Universities: Medium Programs"},
{"Name": "Washington Adventist University","FTE": 900","Control": "Private not-for-profit","State": "Maryland","Lat":38.987206,"Long":-77.00131,"Carnegie": "Master's Colleges & Universities: Medium Programs"},
{"Name": "Shorter University-College of Adult & Professional Programs","FTE": 257","Control": "Private not-for-profit","State": "Georgia","Lat":33.92788,"Long":-84.482166,"Carnegie": "Master's Colleges & Universities: Medium Programs"},


{"Name": "Amridge University","FTE": 363","Control": "Private not-for-profit","State": "Alabama","Lat":32.362609,"Long":-86.17401,"Carnegie": "Master's Colleges & Universities: Small Programs"},
{"Name": "Faulkner University","FTE": 2746","Control": "Private not-for-profit","State": "Alabama","Lat":32.384181,"Long":-86.21641,"Carnegie": "Master's Colleges & Universities: Small Programs"},
{"Name": "Everest University-Pompano Beach","FTE": 108","Control": "Private not-for-profit","State": "Florida","Lat":26.234119,"Long":-80.103598,"Carnegie": "Master's Colleges & Universities: Small Programs"},
{"Name": "Francis Marion University","FTE": 3472","Control": "Public","State": "South Carolina","Lat":34.192277,"Long":-79.655515,"Carnegie": "Master's Colleges & Universities: Small Programs"},


{"Name": "Beulah Heights University","FTE": 297","Control": "Private not-for-profit","State": "Georgia","Lat":33.737022,"Long":-84.358086,"Carnegie": "Special Focus Four-Year: Faith-Related Institutions"},
{"Name": "College of Biblical Studies-Houston","FTE": 218","Control": "Private not-for-profit","State": "Texas","Lat":29.716681,"Long":-95.506566,"Carnegie": "Special Focus Four-Year: Faith-Related Institutions"},
{"Name": "Pillar College","FTE": 466","Control": "Private not-for-profit","State": "New Jersey","Lat":40.738539,"Long":-74.169153,"Carnegie": "Special Focus Four-Year: Faith-Related Institutions"},
{"Name": "Charlotte Christian College and Theological Seminary","FTE": 74","Control": "Private not-for-profit","State": "North Carolina","Lat":35.242999,"Long":-80.802527,"Carnegie": "Special Focus Four-Year: Faith-Related Institutions"},
{"Name": "Carolina College of Biblical Studies","FTE": 64","Control": "Private not-for-profit","State": "North Carolina","Lat":35.05141,"Long":-78.939514,"Carnegie": "Special Focus Four-Year: Faith-Related Institutions"},


{"Name": "Helene Fuld College of Nursing","FTE": 269","Control": "Private not-for-profit","State": "New York","Lat":40.802495,"Long":-73.943356,"Carnegie": "Special Focus Four-Year: Other Health Professions Schools"},
{"Name": "Baptist Memorial College of Health Sciences","FTE": 706","Control": "Private not-for-profit","State": "Tennessee","Lat":35.138415,"Long":-90.027501,"Carnegie": "Special Focus Four-Year: Other Health Professions Schools"},
{"Name": "Remington College-Shreveport Campus","FTE": 297","Control": "Private not-for-profit","State": "Louisiana","Lat":32.403166,"Long":-93.793578,"Carnegie": "Special Focus Four-Year: Other Special Focus Institutions"},
{"Name": "Gupton Jones College of Funeral Service","FTE": 236","Control": "Private not-for-profit","State": "Georgia","Lat":33.710441,"Long":-84.179602,"Carnegie": "Special Focus Two-Year: Arts & Design"},


{"Name": "Academy for Nursing and Health Occupations","FTE": 251","Control": "Private not-for-profit","State": "Florida","Lat":26.70653,"Long":-80.121497,"Carnegie": "Special Focus Two-Year: Health Professions"},
{"Name": "Remington College-Mobile Campus","FTE": 386","Control": "Private not-for-profit","State": "Alabama","Lat":30.671139,"Long":-88.145035,"Carnegie": "Special Focus Two-Year: Technical Professions"},